{"name":"Louvre Museum","city":"Paris","lat":48.8606,"lon":2.3376,"tags":["art","museum"],"hours":"09:00-18:00","price_eur":17,"url":"https://www.louvre.fr/"}
{"name":"Musée d'Orsay","city":"Paris","lat":48.8600,"lon":2.3266,"tags":["art","museum"],"hours":"09:30-18:00","price_eur":16,"url":"https://www.musee-orsay.fr/"}
{"name":"Montmartre","city":"Paris","lat":48.8867,"lon":2.3431,"tags":["view","walk","neighborhood"],"hours":"00:00-23:59","price_eur":0,"url":"https://en.parisinfo.com/"}
{"name":"Seine Riverside Walk","city":"Paris","lat":48.8584,"lon":2.2945,"tags":["walk","scenic"],"hours":"00:00-23:59","price_eur":0,"url":"https://en.parisinfo.com/"}
{"name":"Vieux Lyon","city":"Lyon","lat":45.7634,"lon":4.8275,"tags":["history","walk","neighborhood"],"hours":"00:00-23:59","price_eur":0,"url":"https://en.lyon-france.com/"}
{"name":"Basilique Notre-Dame de Fourvière","city":"Lyon","lat":45.7622,"lon":4.8229,"tags":["view","church","history"],"hours":"08:00-18:00","price_eur":0,"url":"https://www.fourviere.org/"}
{"name":"Les Halles de Lyon Paul Bocuse","city":"Lyon","lat":45.7646,"lon":4.8520,"tags":["food","market"],"hours":"09:00-18:00","price_eur":0,"url":"https://www.hallespaulbocuse.eu/"}